faa,name,lat,lon,tzone
BRW,Wiley Post Will Rogers Mem,71.285446,-156.766003,America/Anchorage
AIN,Wainwright Airport,70.638056,-159.994722,America/Anchorage
K03,Wainwright As,70.613378,-159.86035,America/Anchorage
ATK,Atqasuk Edward Burnell Sr Memorial Airport,70.4673,-157.436,America/Anchorage
UUK,Ugnu-Kuparuk Airport,70.330833,-149.5975,America/Anchorage
